{
  "delhi": [
    {
      "id": "1",
      "name": "AIIMS Delhi - Cardiology Department",
      "address": "Ansari Nagar, New Delhi, Delhi 110029",
      "phone": "+91-11-26588500",
      "email": "cardiology@aiims.edu",
      "website": "www.aiims.edu",
      "specialties": ["Cardiology", "Cardiac Surgery", "Interventional Cardiology"],
      "emergency": true,
      "hours": "24/7 Emergency",
      "lat": 28.5665,
      "lng": 77.2090,
      "rating": 4.8
    },
    {
      "id": "2",
      "name": "Fortis Escorts Heart Institute",
      "address": "Okhla Road, New Delhi, Delhi 110025",
      "phone": "+91-11-42888888",
      "email": "info@fortisescorts.in",
      "website": "www.fortisescorts.in",
      "specialties": ["Cardiology", "Cardiac Surgery", "Pediatric Cardiology"],
      "emergency": true,
      "hours": "24/7 Emergency",
      "lat": 28.5510,
      "lng": 77.2743,
      "rating": 4.7
    },
    {
      "id": "3",
      "name": "Max Super Speciality Hospital",
      "address": "Press Enclave Road, New Delhi, Delhi 110017",
      "phone": "+91-11-40554055",
      "email": "info@maxhealthcare.in",
      "website": "www.maxhealthcare.in",
      "specialties": ["Cardiology", "Cardiac Surgery", "Electrophysiology"],
      "emergency": true,
      "hours": "24/7 Emergency",
      "lat": 28.5699,
      "lng": 77.2387,
      "rating": 4.6
    },
    {
      "id": "4",
      "name": "Apollo Hospitals",
      "address": "Mathura Road, Sarita Vihar, New Delhi, Delhi 110076",
      "phone": "+91-11-26825000",
      "email": "delhi@apollohospitals.com",
      "website": "www.apollohospitals.com",
      "specialties": ["Cardiology", "Cardiac Surgery", "Preventive Cardiology"],
      "emergency": true,
      "hours": "24/7 Emergency",
      "lat": 28.5352,
      "lng": 77.2710,
      "rating": 4.5
    },
    {
      "id": "5",
      "name": "BLK Super Speciality Hospital",
      "address": "Pusa Road, New Delhi, Delhi 110005",
      "phone": "+91-11-30403040",
      "email": "info@blkhospital.com",
      "website": "www.blkhospital.com",
      "specialties": ["Cardiology", "Cardiac Surgery", "Heart Transplant"],
      "emergency": true,
      "hours": "24/7 Emergency",
      "lat": 28.6394,
      "lng": 77.1912,
      "rating": 4.4
    }
  ],
  "mumbai": [
    {
      "id": "6",
      "name": "Kokilaben Dhirubhai Ambani Hospital",
      "address": "Sion, Mumbai, Maharashtra 400022",
      "phone": "+91-22-25452505",
      "email": "info@kokilabenhospital.com",
      "website": "www.kokilabenhospital.com",
      "specialties": ["Cardiology", "Cardiac Surgery", "Neurology"],
      "emergency": true,
      "hours": "24/7 Emergency",
      "lat": 19.0760,
      "lng": 72.8777,
      "rating": 4.3
    },
    {
      "id": "7",
      "name": "Lilavati Hospital",
      "address": "Bandra-Worli Sea Face Road, Mumbai, Maharashtra 400025",
      "phone": "+91-22-25452505",
      "email": "info@lilavatihospital.com",
      "website": "www.lilavatihospital.com",
      "specialties": ["Cardiology", "Cardiac Surgery", "Pediatric Cardiology"],
      "emergency": true,
      "hours": "24/7 Emergency",
      "lat": 19.0176,
      "lng": 72.8564,
      "rating": 4.2
    },
    {
      "id": "8",
      "name": "Hinduja Hospital",
      "address": "Maharshi Nagar, Mumbai, Maharashtra 400025",
      "phone": "+91-22-25452505",
      "email": "info@hindujahospital.com",
      "website": "www.hindujahospital.com",
      "specialties": ["Cardiology", "Cardiac Surgery", "Neurology"],
      "emergency": true,
      "hours": "24/7 Emergency",
      "lat": 19.0176,
      "lng": 72.8564,
      "rating": 4.1
    },
    {
      "id": "9",
      "name": "Nanavati Hospital",
      "address": "New Sion, Mumbai, Maharashtra 400025",
      "phone": "+91-22-24042505",
      "email": "info@nanavatihospital.com",
      "website": "www.nanavatihospital.com",
      "specialties": ["Cardiology", "Cardiac Surgery", "Pediatric Cardiology"],
      "emergency": true,
      "hours": "24/7 Emergency",
      "lat": 19.0760,
      "lng": 72.8564,
      "rating": 4.0
    },
    {
      "id": "10",
      "name": "Jaslok Hospital",
      "address": "Sion, Mumbai, Maharashtra 400025",
      "phone": "+91-22-24042505",
      "email": "info@jaslokhospital.com",
      "website": "www.jaslokhospital.com",
      "specialties": ["Cardiology", "Cardiac Surgery", "Orthopedics"],
      "emergency": true,
      "hours": "24/7 Emergency",
      "lat": 19.0176,
      "lng": 72.8564,
      "rating": 3.9
    }
  ],
  "bangalore": [
    {
      "id": "11",
      "name": "Manipal Hospital",
      "address": "Miller Road, Bengaluru, Karnataka 560104",
      "phone": "+91-80-22410000",
      "email": "info@manipalhospital.com",
      "website": "www.manipalhospital.com",
      "specialties": ["Cardiology", "Cardiac Surgery", "Neurology"],
      "emergency": true,
      "hours": "24/7 Emergency",
      "lat": 12.9666,
      "lng": 77.5983,
      "rating": 4.4
    },
    {
      "id": "12",
      "name": "Fortis Hospital",
      "address": "Cunningham Road, Bengaluru, Karnataka 560103",
      "phone": "+91-80-22410000",
      "email": "info.bangalore@fortis.com",
      "website": "www.fortis.com",
      "specialties": ["Cardiology", "Cardiac Surgery", "Pediatric Cardiology"],
      "emergency": true,
      "hours": "24/7 Emergency",
      "lat": 12.9666,
      "lng": 77.5983,
      "rating": 4.6
    },
    {
      "id": "13",
      "name": "Narayana Hrudayalaya Hospital",
      "address": "Hosur Road, Bengaluru, Karnataka 560025",
      "phone": "+91-80-22226500",
      "email": "info@nhhrudayalaya.org",
      "website": "www.nhhrudayalaya.org",
      "specialties": ["Cardiology", "Cardiac Surgery", "Neurology"],
      "emergency": true,
      "hours": "24/7 Emergency",
      "lat": 12.9966,
      "lng": 77.6066,
      "rating": 4.5
    },
    {
      "id": "14",
      "name": "Sakra World Hospital",
      "address": "Hosur Road, Bengaluru, Karnataka 560079",
      "phone": "+91-80-22492500",
      "email": "info@sakraworld.com",
      "website": "www.sakraworld.com",
      "specialties": ["Cardiology", "Cardiac Surgery", "Orthopedics"],
      "emergency": true,
      "hours": "24/7 Emergency",
      "lat": 12.9666,
      "lng": 77.6066,
      "rating": 4.3
    },
    {
      "id": "15",
      "name": "Apollo Hospital",
      "address": "Bannerghatta Road, Bengaluru, Karnataka 560076",
      "phone": "+91-80-22226500",
      "email": "info.bangalore@apollohospitals.com",
      "website": "www.apollohospitals.com",
      "specialties": ["Cardiology", "Cardiac Surgery", "Preventive Cardiology"],
      "emergency": true,
      "hours": "24/7 Emergency",
      "lat": 12.9666,
      "lng": 77.6066,
      "rating": 4.6
    }
  ],
  "chennai": [
    {
      "id": "16",
      "name": "Madras Medical College",
      "address": "Rajaji Street, Chennai, Tamil Nadu 600003",
      "phone": "+91-44-423450000",
      "email": "info@madrasmedicalcollege.com",
      "website": "www.madrasmedicalcollege.com",
      "specialties": ["Cardiology", "Cardiac Surgery", "Pediatric Cardiology", "Neurology"],
      "emergency": true,
      "hours": "24/7 Emergency",
      "lat": 13.0674,
      "lng": 80.2560,
      "rating": 4.4
    },
    {
      "id": "17",
      "name": "Apollo Hospitals",
      "address": "Greams Road, Chennai, Tamil Nadu 600003",
      "phone": "+91-44-423450000",
      "email": "info.chennai@apollohospitals.com",
      "website": "www.apollohospitals.com",
      "specialties": ["Cardiology", "Cardiac Surgery", "Preventive Cardiology"],
      "emergency": true,
      "hours": "24/7 Emergency",
      "lat": 13.0674,
      "lng": 80.2560,
      "rating": 4.5
    },
    {
      "id": "18",
      "name": "Sri Ramachandra Institute of Cardiology",
      "address": "Greams Road, Chennai, Tamil Nadu 600003",
      "phone": "+91-44-423450000",
      "email": "info@sriric.org",
      "website": "www.sriric.org",
      "specialties": ["Cardiology", "Cardiac Surgery", "Interventional Cardiology"],
      "emergency": true,
      "hours": "24/7 Emergency",
      "lat": 13.0674,
      "lng": 80.2560,
      "rating": 4.7
    },
    {
      "id": "19",
      "name": "MIOT Hospital",
      "address": "Radhakrishna Road, Chennai, Tamil Nadu 600003",
      "phone": "+91-44-423450000",
      "email": "info@miot.in",
      "website": "www.miot.in",
      "specialties": ["Cardiology", "Cardiac Surgery", "Neurology"],
      "emergency": true,
      "hours": "24/7 Emergency",
      "lat": 13.0674,
      "lng": 80.2560,
      "rating": 4.6
    },
    {
      "id": "20",
      "name": "Tamil Nadu Government Multi Super Speciality Hospital",
      "address": "Chennai - 600003",
      "phone": "+91-44-423450000",
      "email": "info@tnmmsc.in",
      "website": "www.tnmmsc.in",
      "specialties": ["Cardiology", "Cardiac Surgery", "Neurology", "Oncology"],
      "emergency": true,
      "hours": "24/7 Emergency",
      "lat": 13.0674,
      "lng": 80.2560,
      "rating": 4.8
    }
  ],
  "kolkata": [
    {
      "id": "21",
      "name": "AMRI Hospitals",
      "address": "Kolkata, West Bengal 700026",
      "phone": "+91-33-23464222",
      "email": "info@amrihospitals.in",
      "website": "www.amrihospitals.in",
      "specialties": ["Cardiology", "Cardiac Surgery", "Neurology"],
      "emergency": true,
      "hours": "24/7 Emergency",
      "lat": 22.5667,
      "lng": 88.3639,
      "rating": 4.2
    },
    {
      "id": "22",
      "name": "Apollo Gleneagles Hospital",
      "address": "58, Canal Circular Road, Kolkata, West Bengal 700054",
      "phone": "+91-33-23364222",
      "email": "info.kolkata@apolloglenagles.com",
      "website": "www.apollodlenagles.com",
      "specialties": ["Cardiology", "Cardiac Surgery", "Orthopedics"],
      "emergency": true,
      "hours": "24/7 Emergency",
      "lat": 22.5667,
      "lng": 88.3639,
      "rating": 4.4
    },
    {
      "id": "23",
      "name": "Rabindranath Medical College",
      "address": "Kolkata, West Bengal 700026",
      "phone": "+91-33-23464222",
      "email": "info@rmch.in",
      "website": "www.rmch.in",
      "specialties": ["Cardiology", "Cardiac Surgery", "Pediatric Cardiology"],
      "emergency": true,
      "hours": "24/7 Emergency",
      "lat": 22.5667,
      "lng": 88.3639,
      "rating": 4.1
    },
    {
      "id": "24",
      "name": "Peerless Hospital",
      "address": "Kolkata, West Bengal 700091",
      "phone": "+91-33-23464222",
      "email": "info@peerlesshospital.com",
      "website": "www.peerlesshospital.com",
      "specialties": ["Cardiology", "Cardiac Surgery", "Neurology"],
      "emergency": true,
      "hours": "24/7 Emergency",
      "lat": 22.5667,
      "lng": 88.3639,
      "rating": 4.0
    },
    {
      "id": "25",
      "name": "Saroj Gupta Hospital",
      "address": "Kolkata, West Bengal 700027",
      "phone": "+91-33-23464222",
      "email": "info@sarojguptahospital.com",
      "website": "www.sarojguptahospital.com",
      "specialties": ["Cardiology", "Cardiac Surgery", "Neurology"],
      "emergency": true,
      "hours": "24/7 Emergency",
      "lat": 22.5667,
      "lng": 88.3639,
      "rating": 4.3
    }
  ],
  "hyderabad": [
    {
      "id": "26",
      "name": "Nizam's Institute of Medical Sciences",
      "address": "Punjagutta, Hyderabad, Telangana 500082",
      "phone": "+91-40-23480000",
      "email": "info@nims.edu.in",
      "website": "www.nims.edu.in",
      "specialties": ["Cardiology", "Cardiac Surgery", "Neurology", "Oncology"],
      "emergency": true,
      "hours": "24/7 Emergency",
      "lat": 17.3850,
      "lng": 78.4867,
      "rating": 4.5
    },
    {
      "id": "27",
      "name": "Yashoda Hospitals",
      "address": "Somajiguda, Hyderabad, Telangana 500082",
      "phone": "+91-40-23480000",
      "email": "info@yashodahospitals.com",
      "website": "www.yashodahospitals.com",
      "specialties": ["Cardiology", "Cardiac Surgery", "Neurology"],
      "emergency": true,
      "hours": "24/7 Emergency",
      "lat": 17.3850,
      "lng": 78.4867,
      "rating": 4.4
    },
    {
      "id": "28",
      "name": "Apollo Hospitals",
      "address": "Hyderguda, Hyderabad, Telangana 500082",
      "phone": "+91-40-23480000",
      "email": "info.hyderabad@apollohospitals.com",
      "website": "www.apollohospitals.com",
      "specialties": ["Cardiology", "Cardiac Surgery", "Preventive Cardiology"],
      "emergency": true,
      "hours": "24/7 Emergency",
      "lat": 17.3850,
      "lng": 78.4867,
      "rating": 4.6
    },
    {
      "id": "29",
      "name": "Care Hospitals",
      "address": "Banjara Hills, Hyderabad, Telangana 500082",
      "phone": "+91-40-23480000",
      "email": "info@carehospitals.com",
      "website": "www.carehospitals.com",
      "specialties": ["Cardiology", "Cardiac Surgery", "Orthopedics"],
      "emergency": true,
      "hours": "24/7 Emergency",
      "lat": 17.3850,
      "lng": 78.4867,
      "rating": 4.3
    },
    {
      "id": "30",
      "name": "Global Hospitals",
      "address": "Hitech City, Hyderabad, Telangana 500081",
      "phone": "+91-40-23480000",
      "email": "info@globalhospitals.com",
      "website": "www.globalhospitals.com",
      "specialties": ["Cardiology", "Cardiac Surgery", "Neurology", "Oncology"],
      "emergency": true,
      "hours": "24/7 Emergency",
      "lat": 17.4264,
      "lng": 78.4475,
      "rating": 4.7
    }
  ],
  "pune": [
    {
      "id": "31",
      "name": "Sassoon Hospital",
      "address": "Bund Garden, Pune, Maharashtra 411012",
      "phone": "+91-20-26140000",
      "email": "info@sassoonhospital.com",
      "website": "www.sassoonhospital.com",
      "specialties": ["Cardiology", "Cardiac Surgery", "Neurology"],
      "emergency": true,
      "hours": "24/7 Emergency",
      "lat": 18.5150,
      "lng": 73.8568,
      "rating": 4.0
    },
    {
      "id": "32",
      "name": "Jehangir Hospital",
      "address": "Saswad, Pune, Maharashtra 412008",
      "phone": "+91-20-27440000",
      "email": "info@jehangirhospital.com",
      "website": "www.jehangirhospital.com",
      "specialties": ["Cardiology", "Cardiac Surgery", "Orthopedics"],
      "emergency": true,
      "hours": "24/7 Emergency",
      "lat": 18.5150,
      "lng": 73.8568,
      "rating": 4.1
    },
    {
      "id": "33",
      "name": "Deenanath Mangeshkar Hospital",
      "address": "Pune, Maharashtra 411012",
      "phone": "+91-20-27440000",
      "email": "info@dmhospitals.org",
      "website": "www.dmhospitals.org",
      "specialties": ["Cardiology", "Cardiac Surgery", "Neurology"],
      "emergency": true,
      "hours": "24/7 Emergency",
      "lat": 18.5150,
      "lng": 73.8568,
      "rating": 4.2
    },
    {
      "id": "34",
      "name": "Ruby Hall Clinic",
      "address": "Pune, Maharashtra 411041",
      "phone": "+91-20-27440000",
      "email": "info@rubyhallclinic.com",
      "website": "www.rubyhallclinic.com",
      "specialties": ["Cardiology", "Pediatric Cardiology"],
      "emergency": false,
      "hours": "9:00 AM - 8:00 PM",
      "lat": 18.5150,
      "lng": 73.8568,
      "rating": 4.0
    }
  ],
  "ahmedabad": [
    {
      "id": "35",
      "name": "Smt. Civil Hospital",
      "address": "Ahmedabad, Gujarat 380006",
      "phone": "+91-79-26301111",
      "email": "info@smthospital.com",
      "website": "www.smthospital.com",
      "specialties": ["Cardiology", "Cardiac Surgery", "Neurology"],
      "emergency": true,
      "hours": "24/7 Emergency",
      "lat": 23.0225,
      "lng": 72.5804,
      "rating": 4.3
    },
    {
      "id": "36",
      "name": "Apollo Hospital",
      "address": "Ahmedabad, Gujarat 380006",
      "phone": "+91-79-26301111",
      "email": "info.ahmedabad@apollohospitals.com",
      "website": "www.apollohospitals.com",
      "specialties": ["Cardiology", "Cardiac Surgery", "Neurology"],
      "emergency": true,
      "hours": "24/7 Emergency",
      "lat": 23.0225,
      "lng": 72.5804,
      "rating": 4.7
    },
    {
      "id": "37",
      "name": "Zydus Hospital",
      "address": "Ahmedabad, Gujarat 380006",
      "phone": "+91-79-26301111",
      "email": "info@zydushospital.com",
      "website": "www.zydushospital.com",
      "specialties": ["Cardiology", "Cardiac Surgery", "Pediatric Cardiology"],
      "emergency": true,
      "hours": "24/7 Emergency",
      "lat": 23.0225,
      "lng": 72.5804,
      "rating": 4.6
    },
    {
      "id": "38",
      "name": "Shalby Hospitals",
      "address": "Ahmedabad, Gujarat 380006",
      "phone": "+91-79-26301111",
      "email": "info@shalbyhospitals.com",
      "website": "www.shalbyhospitals.com",
      "specialties": ["Cardiology", "Cardiac Surgery", "Neurology"],
      "emergency": true,
      "hours": "24/7 Emergency",
      "lat": 23.0225,
      "lng": 72.5804,
      "rating": 4.4
    }
  ],
  "jaipur": [
    {
      "id": "39",
      "name": "Maharaja Pratap Singh Hospital",
      "address": "Jaipur, Rajasthan 302011",
      "phone": "+91-141-2588200",
      "email": "info@maharajaprasarhospital.com",
      "website": "www.maharajaprasarhospital.com",
      "specialties": ["Cardiology", "Cardiac Surgery", "Neurology"],
      "emergency": true,
      "hours": "24/7 Emergency",
      "lat": 26.9237,
      "lng": 75.8238,
      "rating": 4.5
    }
  ],
  "lucknow": [
    {
      "id": "40",
      "name": "King George's Medical University",
      "address": "Lucknow, Uttar Pradesh 226001",
      "phone": "+91-522-45340000",
      "email": "info@kgmu.edu.in",
      "website": "www.kgmu.in",
      "specialties": ["Cardiology", "Cardiac Surgery", "Neurology"],
      "emergency": true,
      "hours": "24/7 Emergency",
      "lat": 26.7451,
      "lng": 80.9312,
      "rating": 4.6
    },
    {
      "id": "41",
      "name": "Sanjay Gandhi Post Graduate Institute of Medical Sciences",
      "address": "Raibareli Road, Lucknow, Uttar Pradesh 226003",
      "phone": "+91-522-45340000",
      "email": "info@sgpgi.ac.in",
      "website": "www.sgpgi.ac.in",
      "specialties": ["Cardiology", "Cardiac Surgery", "Neurology"],
      "emergency": true,
      "hours": "24/7 Emergency",
      "lat": 26.7451,
      "lng": 80.9312,
      "rating": 4.7
    }
  ],
  "indore": [
    {
      "id": "42",
      "name": "All India Institute of Medical Sciences",
      "address": "Ansari Nagar, New Delhi, Delhi 110029",
      "phone": "+91-11-26588500",
      "email": "aiims@aiims.edu",
      "website": "www.aiims.edu",
      "specialties": ["Cardiology", "Cardiac Surgery", "Interventional Cardiology"],
      "emergency": true,
      "hours": "24/7 Emergency",
      "lat": 28.5665,
      "lng": 77.2090,
      "rating": 4.8
    },
    {
      "id": "43",
      "name": "Max Super Speciality Hospital",
      "address": "Press Enclave Road, New Delhi, Delhi 110017",
      "phone": "+91-11-40554055",
      "email": "info@maxhealthcare.in",
      "website": "www.maxhealthcare.in",
      "specialties": ["Cardiology", "Cardiac Surgery", "Electrophysiology"],
      "emergency": true,
      "hours": "24/7 Emergency",
      "lat": 28.5699,
      "lng": 77.2387,
      "rating": 4.6
    },
    {
      "id": "44",
      "name": "Fortis Escorts Heart Institute",
      "address": "Okhla Road, New Delhi, Delhi 110025",
      "phone": "+91-11-42888888",
      "email": "info@fortisescorts.in",
      "website": "www.fortisescorts.in",
      "specialties": ["Cardiology", "Cardiac Surgery", "Pediatric Cardiology"],
      "emergency": true,
      "hours": "24/7 Emergency",
      "lat": 28.5510,
      "lng": 77.2743,
      "rating": 4.7
    },
    {
      "id": "45",
      "name": "BLK Super Speciality Hospital",
      "address": "Pusa Road, New Delhi, Delhi 110005",
      "phone": "+91-11-30403040",
      "email": "info@blkhospital.com",
      "website": "www.blkhospital.com",
      "specialties": ["Cardiology", "Cardiac Surgery", "Heart Transplant"],
      "emergency": true,
      "hours": "24/7 Emergency",
      "lat": 28.6394,
      "lng": 77.1912,
      "rating": 4.4
    },
    {
      "id": "46",
      "name": "Apollo Hospitals",
      "address": "Mathura Road, Sarita Vihar, New Delhi, Delhi 110076",
      "phone": "+91-11-26825000",
      "email": "delhi@apollohospitals.com",
      "website": "www.apollohospitals.com",
      "specialties": ["Cardiology", "Cardiac Surgery", "Preventive Cardiology"],
      "emergency": true,
      "hours": "24/7 Emergency",
      "lat": 28.5352,
      "lng": 77.2710,
      "rating": 4.5
    },
    {
      "id": "47",
      "name": "Sir Ganga Ram Hospital",
      "address": "Moolchand, New Delhi 110002",
      "phone": "+91-11-23972200",
      "email": "info@sgrh.delhi.gov.in",
      "website": "www.sgrh.delhi.gov.in",
      "specialties": ["Cardiology", "Cardiac Surgery", "Neurology"],
      "emergency": true,
      "hours": "24/7 Emergency",
      "lat": 28.6400,
      "lng": 77.2430,
      "rating": 4.3
    },
    {
      "id": "48",
      "name": "Nanavati Hospital",
      "address": "New Sion, Mumbai, Maharashtra 400025",
      "phone": "+91-22-24042505",
      "email": "info@nhhrudayalaya.org",
      "website": "www.nhhrudayalaya.org",
      "specialties": ["Cardiology", "Cardiac Surgery", "Neurology"],
      "emergency": true,
      "hours": "24/7 Emergency",
      "lat": 19.0760,
      "lng": 72.8564,
      "rating": 4.0
    },
    {
      "id": "49",
      "name": "Jaslok Hospital",
      "address": "Sion, Mumbai, Maharashtra 400025",
      "phone": "+91-22-24042505",
      "email": "info@jaslokhospital.com",
      "website": "www.jaslokhospital.com",
      "specialties": ["Cardiology", "Cardiac Surgery", "Orthopedics"],
      "emergency": true,
      "hours": "24/7 Emergency",
      "lat": 19.0176,
      "lng": 72.8564,
      "rating": 4.0
    },
    {
      "id": "50",
      "name": "Sakra World Hospital",
      "address": "Hosur Road, Bengaluru, Karnataka 560079",
      "phone": "+91-80-22492500",
      "email": "info@sakraworld.com",
      "website": "www.sakraworld.com",
      "specialties": ["Cardiology", "Cardiac Surgery", "Orthopedics"],
      "emergency": true,
      "hours": "24/7 Emergency",
      "lat": 12.9666,
      "lng": 77.6066,
      "rating": 4.3
    }
  ]
}
